{
  "n_events_audited": 8041,
  "n_sample": 2000,
  "baseline": {
    "avg_response_min": 10.03,
    "median_response_min": 9.61,
    "p90_response_min": 12.98
  },
  "atlas": {
    "avg_response_min": 9.45,
    "median_response_min": 9.15,
    "p90_response_min": 12.32
  },
  "delta_avg_min": 0.58,
  "delta_p90_min": 0.66,
  "officer_hours_saved": 78.4,
  "gini_baseline": 0.031,
  "gini_atlas": 0.033,
  "by_zone": [
    {
      "zone": "East Zone 2",
      "n": 46,
      "baseline_avg": 11.33,
      "atlas_avg": 10.6,
      "delta": 0.73
    },
    {
      "zone": "West Zone 2",
      "n": 84,
      "baseline_avg": 9.31,
      "atlas_avg": 8.58,
      "delta": 0.73
    },
    {
      "zone": "Other",
      "n": 1160,
      "baseline_avg": 10.3,
      "atlas_avg": 9.63,
      "delta": 0.67
    },
    {
      "zone": "Central Zone 2",
      "n": 154,
      "baseline_avg": 9.04,
      "atlas_avg": 8.45,
      "delta": 0.59
    },
    {
      "zone": "South Zone 2",
      "n": 91,
      "baseline_avg": 9.39,
      "atlas_avg": 8.93,
      "delta": 0.46
    },
    {
      "zone": "North Zone 2",
      "n": 103,
      "baseline_avg": 9.44,
      "atlas_avg": 9.0,
      "delta": 0.44
    },
    {
      "zone": "Central Zone 1",
      "n": 66,
      "baseline_avg": 9.83,
      "atlas_avg": 9.42,
      "delta": 0.41
    },
    {
      "zone": "West Zone 1",
      "n": 87,
      "baseline_avg": 9.96,
      "atlas_avg": 9.59,
      "delta": 0.37
    },
    {
      "zone": "South Zone 1",
      "n": 64,
      "baseline_avg": 10.07,
      "atlas_avg": 9.72,
      "delta": 0.35
    },
    {
      "zone": "North Zone 1",
      "n": 79,
      "baseline_avg": 9.91,
      "atlas_avg": 9.57,
      "delta": 0.33
    },
    {
      "zone": "East Zone 1",
      "n": 66,
      "baseline_avg": 9.8,
      "atlas_avg": 9.66,
      "delta": 0.13
    }
  ],
  "scenarios": [
    {
      "id": "FKID002265",
      "lat": 12.9758911,
      "lng": 77.5644235,
      "cause": "vehicle_breakdown",
      "zone": "Unknown",
      "hour": 1,
      "actual_station": "Magadi Road",
      "atlas_station": "Magadi Road",
      "baseline_resp_min": 9.83,
      "atlas_resp_min": 9.83,
      "delta_min": 0.0
    },
    {
      "id": "FKID004445",
      "lat": 12.8792647,
      "lng": 77.6466964,
      "cause": "vehicle_breakdown",
      "zone": "Unknown",
      "hour": 6,
      "actual_station": "Electronic City",
      "atlas_station": "HSR Layout",
      "baseline_resp_min": 12.48,
      "atlas_resp_min": 10.47,
      "delta_min": 2.01
    },
    {
      "id": "FKID005696",
      "lat": 12.91861725,
      "lng": 77.58946,
      "cause": "accident",
      "zone": "South Zone 1",
      "hour": 4,
      "actual_station": "Jayanagara",
      "atlas_station": "Jayanagara",
      "baseline_resp_min": 10.51,
      "atlas_resp_min": 10.51,
      "delta_min": 0.0
    },
    {
      "id": "FKID001065",
      "lat": 12.989485,
      "lng": 77.6531267,
      "cause": "vehicle_breakdown",
      "zone": "Unknown",
      "hour": 8,
      "actual_station": "Banaswadi",
      "atlas_station": "Banaswadi",
      "baseline_resp_min": 7.98,
      "atlas_resp_min": 7.98,
      "delta_min": 0.0
    },
    {
      "id": "FKID006334",
      "lat": 12.9820162,
      "lng": 77.5946442,
      "cause": "vehicle_breakdown",
      "zone": "Central Zone 2",
      "hour": 3,
      "actual_station": "Cubbon Park",
      "atlas_station": "Cubbon Park",
      "baseline_resp_min": 9.56,
      "atlas_resp_min": 9.56,
      "delta_min": 0.0
    },
    {
      "id": "FKID007921",
      "lat": 12.9889632,
      "lng": 77.5078726,
      "cause": "others",
      "zone": "West Zone 1",
      "hour": 10,
      "actual_station": "Kamakshipalya",
      "atlas_station": "Kamakshipalya",
      "baseline_resp_min": 8.23,
      "atlas_resp_min": 8.23,
      "delta_min": 0.0
    },
    {
      "id": "FKID002928",
      "lat": 12.9207467,
      "lng": 77.58949,
      "cause": "tree_fall",
      "zone": "Unknown",
      "hour": 14,
      "actual_station": "Jayanagara",
      "atlas_station": "Jayanagara",
      "baseline_resp_min": 4.82,
      "atlas_resp_min": 4.82,
      "delta_min": 0.0
    },
    {
      "id": "FKID001522",
      "lat": 13.0161243,
      "lng": 77.7092002,
      "cause": "road_conditions",
      "zone": "Unknown",
      "hour": 13,
      "actual_station": "K.R. Pura",
      "atlas_station": "K.R. Pura",
      "baseline_resp_min": 7.13,
      "atlas_resp_min": 7.13,
      "delta_min": 0.0
    },
    {
      "id": "FKID001139",
      "lat": 12.975208,
      "lng": 77.6067009,
      "cause": "water_logging",
      "zone": "Unknown",
      "hour": 2,
      "actual_station": "Cubbon Park",
      "atlas_station": "Shivajinagar",
      "baseline_resp_min": 9.72,
      "atlas_resp_min": 9.87,
      "delta_min": -0.15
    },
    {
      "id": "FKID001194",
      "lat": 12.907183,
      "lng": 77.600723,
      "cause": "vehicle_breakdown",
      "zone": "Unknown",
      "hour": 1,
      "actual_station": "Mico Layout",
      "atlas_station": "Mico Layout",
      "baseline_resp_min": 7.32,
      "atlas_resp_min": 7.32,
      "delta_min": 0.0
    },
    {
      "id": "FKID000367",
      "lat": 13.0416934,
      "lng": 77.6141348,
      "cause": "others",
      "zone": "Unknown",
      "hour": 5,
      "actual_station": "Hennuru",
      "atlas_station": "K.G. Halli",
      "baseline_resp_min": 9.19,
      "atlas_resp_min": 8.24,
      "delta_min": 0.94
    },
    {
      "id": "FKID002156",
      "lat": 12.9875536,
      "lng": 77.4751319,
      "cause": "vehicle_breakdown",
      "zone": "Unknown",
      "hour": 9,
      "actual_station": "Kamakshipalya",
      "atlas_station": "Kamakshipalya",
      "baseline_resp_min": 13.15,
      "atlas_resp_min": 13.15,
      "delta_min": 0.0
    },
    {
      "id": "FKID000615",
      "lat": 12.9858915,
      "lng": 77.5264086,
      "cause": "others",
      "zone": "Unknown",
      "hour": 10,
      "actual_station": "Kamakshipalya",
      "atlas_station": "Kamakshipalya",
      "baseline_resp_min": 11.16,
      "atlas_resp_min": 11.16,
      "delta_min": 0.0
    },
    {
      "id": "FKID007296",
      "lat": 12.9498102,
      "lng": 77.5960911,
      "cause": "vehicle_breakdown",
      "zone": "Unknown",
      "hour": 6,
      "actual_station": "Wilson Garden",
      "atlas_station": "Wilson Garden",
      "baseline_resp_min": 6.53,
      "atlas_resp_min": 6.53,
      "delta_min": 0.0
    },
    {
      "id": "FKID001917",
      "lat": 13.0444469,
      "lng": 77.5829371,
      "cause": "congestion",
      "zone": "Unknown",
      "hour": 10,
      "actual_station": "Kodigehalli",
      "atlas_station": "Kodigehalli",
      "baseline_resp_min": 10.68,
      "atlas_resp_min": 10.68,
      "delta_min": 0.0
    },
    {
      "id": "FKID007540",
      "lat": 12.9614533,
      "lng": 77.6065866,
      "cause": "pot_holes",
      "zone": "Central Zone 1",
      "hour": 13,
      "actual_station": "Ashok Nagar",
      "atlas_station": "Ashok Nagar",
      "baseline_resp_min": 7.25,
      "atlas_resp_min": 7.25,
      "delta_min": 0.0
    },
    {
      "id": "FKID002682",
      "lat": 12.9580733,
      "lng": 77.5539867,
      "cause": "vehicle_breakdown",
      "zone": "Unknown",
      "hour": 11,
      "actual_station": "Chamarajpet",
      "atlas_station": "Chamarajpet",
      "baseline_resp_min": 12.14,
      "atlas_resp_min": 12.14,
      "delta_min": 0.0
    },
    {
      "id": "FKID004005",
      "lat": 12.986114,
      "lng": 77.5807451,
      "cause": "water_logging",
      "zone": "Unknown",
      "hour": 3,
      "actual_station": "High ground",
      "atlas_station": "High ground",
      "baseline_resp_min": 9.58,
      "atlas_resp_min": 9.58,
      "delta_min": 0.0
    },
    {
      "id": "FKID003552",
      "lat": 12.9666084,
      "lng": 77.5739023,
      "cause": "vehicle_breakdown",
      "zone": "Unknown",
      "hour": 13,
      "actual_station": "Chamarajpet",
      "atlas_station": "City Market",
      "baseline_resp_min": 8.56,
      "atlas_resp_min": 6.66,
      "delta_min": 1.9
    },
    {
      "id": "FKID000478",
      "lat": 13.0271353,
      "lng": 77.5796689,
      "cause": "procession",
      "zone": "Unknown",
      "hour": 10,
      "actual_station": "Kodigehalli",
      "atlas_station": "R.T. Nagar",
      "baseline_resp_min": 13.71,
      "atlas_resp_min": 11.19,
      "delta_min": 2.51
    },
    {
      "id": "FKID004444",
      "lat": 12.9399903,
      "lng": 77.7473462,
      "cause": "road_conditions",
      "zone": "East Zone 1",
      "hour": 3,
      "actual_station": "Whitefield",
      "atlas_station": "Whitefield",
      "baseline_resp_min": 12.22,
      "atlas_resp_min": 12.22,
      "delta_min": 0.0
    },
    {
      "id": "FKID007101",
      "lat": 12.9562,
      "lng": 77.54666,
      "cause": "vehicle_breakdown",
      "zone": "West Zone 2",
      "hour": 2,
      "actual_station": "Byatarayanapura",
      "atlas_station": "Byatarayanapura",
      "baseline_resp_min": 12.12,
      "atlas_resp_min": 12.12,
      "delta_min": 0.0
    },
    {
      "id": "FKID002725",
      "lat": 12.9170409,
      "lng": 77.5812865,
      "cause": "tree_fall",
      "zone": "Unknown",
      "hour": 11,
      "actual_station": "Jayanagara",
      "atlas_station": "Jayanagara",
      "baseline_resp_min": 6.23,
      "atlas_resp_min": 6.23,
      "delta_min": 0.0
    },
    {
      "id": "FKID000346",
      "lat": 12.9772269,
      "lng": 77.751196,
      "cause": "water_logging",
      "zone": "Unknown",
      "hour": 11,
      "actual_station": "Whitefield",
      "atlas_station": "Whitefield",
      "baseline_resp_min": 11.13,
      "atlas_resp_min": 11.13,
      "delta_min": 0.0
    },
    {
      "id": "FKID000112",
      "lat": 12.9187567,
      "lng": 77.621505,
      "cause": "pot_holes",
      "zone": "South Zone 2",
      "hour": 7,
      "actual_station": "Madiwala",
      "atlas_station": "Madiwala",
      "baseline_resp_min": 6.71,
      "atlas_resp_min": 6.71,
      "delta_min": 0.0
    },
    {
      "id": "FKID002625",
      "lat": 13.0744126,
      "lng": 77.4380138,
      "cause": "tree_fall",
      "zone": "Unknown",
      "hour": 12,
      "actual_station": "No Police Station",
      "atlas_station": "Chikkabanavara",
      "baseline_resp_min": 21.55,
      "atlas_resp_min": 17.58,
      "delta_min": 3.97
    },
    {
      "id": "FKID007695",
      "lat": 12.9724229,
      "lng": 77.6190326,
      "cause": "vehicle_breakdown",
      "zone": "Central Zone 1",
      "hour": 10,
      "actual_station": "Halasur",
      "atlas_station": "Halasur",
      "baseline_resp_min": 6.92,
      "atlas_resp_min": 6.92,
      "delta_min": 0.0
    },
    {
      "id": "FKID004084",
      "lat": 12.9650132,
      "lng": 77.5123059,
      "cause": "vehicle_breakdown",
      "zone": "Unknown",
      "hour": 14,
      "actual_station": "Jnanabharathi",
      "atlas_station": "Jnanabharathi",
      "baseline_resp_min": 8.24,
      "atlas_resp_min": 8.24,
      "delta_min": 0.0
    },
    {
      "id": "FKID005327",
      "lat": 13.0298582,
      "lng": 77.5380185,
      "cause": "vehicle_breakdown",
      "zone": "West Zone 1",
      "hour": 7,
      "actual_station": "Yeshwanthpura",
      "atlas_station": "Yeshwanthpura",
      "baseline_resp_min": 6.79,
      "atlas_resp_min": 6.79,
      "delta_min": 0.0
    },
    {
      "id": "FKID006454",
      "lat": 12.94357128,
      "lng": 77.52651089,
      "cause": "vehicle_breakdown",
      "zone": "West Zone 1",
      "hour": 13,
      "actual_station": "Byatarayanapura",
      "atlas_station": "Byatarayanapura",
      "baseline_resp_min": 7.99,
      "atlas_resp_min": 7.99,
      "delta_min": 0.0
    },
    {
      "id": "FKID005824",
      "lat": 12.927557,
      "lng": 77.6213736,
      "cause": "pot_holes",
      "zone": "South Zone 2",
      "hour": 0,
      "actual_station": "Adugodi",
      "atlas_station": "Adugodi",
      "baseline_resp_min": 8.17,
      "atlas_resp_min": 8.17,
      "delta_min": 0.0
    },
    {
      "id": "FKID002189",
      "lat": 13.0437161,
      "lng": 77.6019219,
      "cause": "vehicle_breakdown",
      "zone": "Unknown",
      "hour": 8,
      "actual_station": "Hebbala",
      "atlas_station": "Hebbala",
      "baseline_resp_min": 9.47,
      "atlas_resp_min": 9.47,
      "delta_min": 0.0
    },
    {
      "id": "FKID006359",
      "lat": 12.9279733,
      "lng": 77.6200661,
      "cause": "vehicle_breakdown",
      "zone": "South Zone 2",
      "hour": 13,
      "actual_station": "Adugodi",
      "atlas_station": "Adugodi",
      "baseline_resp_min": 8.05,
      "atlas_resp_min": 8.05,
      "delta_min": 0.0
    },
    {
      "id": "FKID001748",
      "lat": 12.9906501,
      "lng": 77.6561562,
      "cause": "vehicle_breakdown",
      "zone": "Unknown",
      "hour": 2,
      "actual_station": "Banaswadi",
      "atlas_station": "Banaswadi",
      "baseline_resp_min": 9.74,
      "atlas_resp_min": 9.74,
      "delta_min": 0.0
    },
    {
      "id": "FKID007718",
      "lat": 12.9753275,
      "lng": 77.6072089,
      "cause": "vehicle_breakdown",
      "zone": "Central Zone 1",
      "hour": 3,
      "actual_station": "Cubbon Park",
      "atlas_station": "Shivajinagar",
      "baseline_resp_min": 10.94,
      "atlas_resp_min": 8.18,
      "delta_min": 2.76
    },
    {
      "id": "FKID003252",
      "lat": 12.9634616,
      "lng": 77.5675385,
      "cause": "water_logging",
      "zone": "Unknown",
      "hour": 12,
      "actual_station": "Chamarajpet",
      "atlas_station": "Chamarajpet",
      "baseline_resp_min": 8.46,
      "atlas_resp_min": 8.46,
      "delta_min": 0.0
    },
    {
      "id": "FKID002688",
      "lat": 12.9559519,
      "lng": 77.716416,
      "cause": "vehicle_breakdown",
      "zone": "Unknown",
      "hour": 8,
      "actual_station": "Whitefield",
      "atlas_station": "HAL Old Airport",
      "baseline_resp_min": 11.79,
      "atlas_resp_min": 7.92,
      "delta_min": 3.87
    },
    {
      "id": "FKID003064",
      "lat": 12.9833208,
      "lng": 77.5488038,
      "cause": "road_conditions",
      "zone": "Unknown",
      "hour": 12,
      "actual_station": "Magadi Road",
      "atlas_station": "Vijayanagara",
      "baseline_resp_min": 12.18,
      "atlas_resp_min": 9.1,
      "delta_min": 3.07
    },
    {
      "id": "FKID001937",
      "lat": 12.9125622,
      "lng": 77.5673106,
      "cause": "others",
      "zone": "Unknown",
      "hour": 5,
      "actual_station": "K.S. Layout",
      "atlas_station": "K.S. Layout",
      "baseline_resp_min": 7.98,
      "atlas_resp_min": 7.98,
      "delta_min": 0.0
    },
    {
      "id": "FKID006004",
      "lat": 12.9584638,
      "lng": 77.7157794,
      "cause": "vehicle_breakdown",
      "zone": "East Zone 1",
      "hour": 11,
      "actual_station": "HAL Old Airport",
      "atlas_station": "HAL Old Airport",
      "baseline_resp_min": 8.02,
      "atlas_resp_min": 8.02,
      "delta_min": 0.0
    },
    {
      "id": "FKID004491",
      "lat": 12.9616506,
      "lng": 77.7167073,
      "cause": "vehicle_breakdown",
      "zone": "East Zone 1",
      "hour": 1,
      "actual_station": "HAL Old Airport",
      "atlas_station": "HAL Old Airport",
      "baseline_resp_min": 9.19,
      "atlas_resp_min": 9.19,
      "delta_min": 0.0
    },
    {
      "id": "FKID004649",
      "lat": 13.057345,
      "lng": 77.4725633,
      "cause": "others",
      "zone": "Unknown",
      "hour": 10,
      "actual_station": "No Police Station",
      "atlas_station": "No Police Station",
      "baseline_resp_min": 13.35,
      "atlas_resp_min": 13.35,
      "delta_min": 0.0
    },
    {
      "id": "FKID002646",
      "lat": 13.0419493,
      "lng": 77.515386,
      "cause": "others",
      "zone": "Unknown",
      "hour": 23,
      "actual_station": "Peenya",
      "atlas_station": "Peenya",
      "baseline_resp_min": 6.17,
      "atlas_resp_min": 6.17,
      "delta_min": 0.0
    },
    {
      "id": "FKID005116",
      "lat": 13.2017067,
      "lng": 77.66236,
      "cause": "vehicle_breakdown",
      "zone": "Unknown",
      "hour": 0,
      "actual_station": "Devanahalli Airport",
      "atlas_station": "Devanahalli Airport",
      "baseline_resp_min": 16.31,
      "atlas_resp_min": 16.31,
      "delta_min": 0.0
    },
    {
      "id": "FKID001548",
      "lat": 12.9460623,
      "lng": 77.4960791,
      "cause": "vehicle_breakdown",
      "zone": "Unknown",
      "hour": 4,
      "actual_station": "Jnanabharathi",
      "atlas_station": "Jnanabharathi",
      "baseline_resp_min": 10.16,
      "atlas_resp_min": 10.16,
      "delta_min": 0.0
    },
    {
      "id": "FKID003412",
      "lat": 12.98109,
      "lng": 77.5703733,
      "cause": "pot_holes",
      "zone": "Unknown",
      "hour": 3,
      "actual_station": "Chamarajpet",
      "atlas_station": "Sheshadripuram",
      "baseline_resp_min": 10.46,
      "atlas_resp_min": 8.76,
      "delta_min": 1.7
    },
    {
      "id": "FKID008150",
      "lat": 13.0150414,
      "lng": 77.5841226,
      "cause": "vehicle_breakdown",
      "zone": "Unknown",
      "hour": 8,
      "actual_station": "Sadashivanagar",
      "atlas_station": "R.T. Nagar",
      "baseline_resp_min": 10.94,
      "atlas_resp_min": 6.45,
      "delta_min": 4.49
    },
    {
      "id": "FKID003153",
      "lat": 12.9364416,
      "lng": 77.6072177,
      "cause": "procession",
      "zone": "Unknown",
      "hour": 5,
      "actual_station": "Adugodi",
      "atlas_station": "Adugodi",
      "baseline_resp_min": 10.67,
      "atlas_resp_min": 10.67,
      "delta_min": 0.0
    },
    {
      "id": "FKID005588",
      "lat": 12.95576448,
      "lng": 77.72105812,
      "cause": "vehicle_breakdown",
      "zone": "East Zone 1",
      "hour": 2,
      "actual_station": "Whitefield",
      "atlas_station": "Whitefield",
      "baseline_resp_min": 9.39,
      "atlas_resp_min": 9.39,
      "delta_min": 0.0
    },
    {
      "id": "FKID001560",
      "lat": 12.9888489,
      "lng": 77.5081285,
      "cause": "vehicle_breakdown",
      "zone": "Unknown",
      "hour": 6,
      "actual_station": "Kamakshipalya",
      "atlas_station": "Kamakshipalya",
      "baseline_resp_min": 7.79,
      "atlas_resp_min": 7.79,
      "delta_min": 0.0
    },
    {
      "id": "FKID001997",
      "lat": 12.8778777,
      "lng": 77.6459877,
      "cause": "vehicle_breakdown",
      "zone": "Unknown",
      "hour": 2,
      "actual_station": "Hulimavu",
      "atlas_station": "Electronic City",
      "baseline_resp_min": 15.11,
      "atlas_resp_min": 13.09,
      "delta_min": 2.03
    },
    {
      "id": "FKID002847",
      "lat": 12.9820961,
      "lng": 77.5642818,
      "cause": "vehicle_breakdown",
      "zone": "Unknown",
      "hour": 12,
      "actual_station": "Magadi Road",
      "atlas_station": "Sheshadripuram",
      "baseline_resp_min": 12.02,
      "atlas_resp_min": 8.68,
      "delta_min": 3.33
    },
    {
      "id": "FKID006131",
      "lat": 12.9779515,
      "lng": 77.6018514,
      "cause": "vehicle_breakdown",
      "zone": "Central Zone 1",
      "hour": 2,
      "actual_station": "Cubbon Park",
      "atlas_station": "Shivajinagar",
      "baseline_resp_min": 8.81,
      "atlas_resp_min": 9.19,
      "delta_min": -0.39
    },
    {
      "id": "FKID008041",
      "lat": 12.97492981,
      "lng": 77.570277,
      "cause": "accident",
      "zone": "Unknown",
      "hour": 4,
      "actual_station": "Chamarajpet",
      "atlas_station": "Upparpet",
      "baseline_resp_min": 8.56,
      "atlas_resp_min": 7.24,
      "delta_min": 1.32
    },
    {
      "id": "FKID004910",
      "lat": 12.9896763,
      "lng": 77.6638225,
      "cause": "construction",
      "zone": "Central Zone 1",
      "hour": 7,
      "actual_station": "Banaswadi",
      "atlas_station": "Banaswadi",
      "baseline_resp_min": 8.02,
      "atlas_resp_min": 8.02,
      "delta_min": 0.0
    },
    {
      "id": "FKID001084",
      "lat": 12.9900024,
      "lng": 77.5886416,
      "cause": "others",
      "zone": "Unknown",
      "hour": 12,
      "actual_station": "High ground",
      "atlas_station": "High ground",
      "baseline_resp_min": 10.57,
      "atlas_resp_min": 10.57,
      "delta_min": 0.0
    },
    {
      "id": "FKID000819",
      "lat": 13.1007763,
      "lng": 77.5993401,
      "cause": "vehicle_breakdown",
      "zone": "Unknown",
      "hour": 0,
      "actual_station": "Yelahanka",
      "atlas_station": "Yelahanka",
      "baseline_resp_min": 9.12,
      "atlas_resp_min": 9.12,
      "delta_min": 0.0
    },
    {
      "id": "FKID006992",
      "lat": 12.93798831,
      "lng": 77.69940685,
      "cause": "vehicle_breakdown",
      "zone": "East Zone 1",
      "hour": 0,
      "actual_station": "HAL Old Airport",
      "atlas_station": "HAL Old Airport",
      "baseline_resp_min": 8.35,
      "atlas_resp_min": 8.35,
      "delta_min": 0.0
    },
    {
      "id": "FKID006582",
      "lat": 12.919942,
      "lng": 77.5624417,
      "cause": "vehicle_breakdown",
      "zone": "South Zone 1",
      "hour": 2,
      "actual_station": "Banashankari",
      "atlas_station": "Banashankari",
      "baseline_resp_min": 11.13,
      "atlas_resp_min": 11.13,
      "delta_min": 0.0
    },
    {
      "id": "FKID005624",
      "lat": 13.0502676,
      "lng": 77.5932789,
      "cause": "accident",
      "zone": "North Zone 1",
      "hour": 19,
      "actual_station": "Hebbala",
      "atlas_station": "Hebbala",
      "baseline_resp_min": 5.59,
      "atlas_resp_min": 5.59,
      "delta_min": 0.0
    }
  ],
  "rupee_impact_lakh": 0.39
}